City_ID,City,Lat,Lng,Max Temp,Humidity,Cloudiness,Wind Speed,Country,Date
0,cape town,-33.9258,18.4232,16.88,79,0,3.6,ZA,1682459870
1,magistralnyy,56.1725,107.4458,-0.59,94,99,1.03,RU,1682460226
2,rikitea,-23.1203,-134.9692,25.41,72,31,4.36,PF,1682460109
3,deputatskiy,69.3,139.9,-6.11,93,95,1.16,RU,1682460130
4,ushuaia,-54.8,-68.3,5.81,70,75,1.03,AR,1682460116
5,qaanaaq,77.484,-69.3632,-7.21,94,100,2.45,GL,1682460111
6,margate,51.3813,1.3862,6.5,74,36,0.89,GB,1682460050
7,bredasdorp,-34.5322,20.0403,14.45,85,20,1.2,ZA,1682460121
8,noumea,-22.2763,166.4572,25.0,99,100,2.47,NC,1682460014
9,stonewall,50.1344,-97.3268,9.84,38,53,2.61,CA,1682460292
10,nayoro,44.3506,142.4578,5.43,70,100,1.72,JP,1682460293
11,mataura,-46.1927,168.8643,11.38,85,100,2.77,NZ,1682460113
12,punta arenas,-53.15,-70.9167,7.84,70,40,6.69,CL,1682460294
13,ilulissat,69.2167,-51.1,1.01,93,100,2.57,GL,1682460135
14,north myrtle beach,33.816,-78.68,21.18,61,0,4.12,US,1682460296
15,colares,38.7992,-9.4469,17.72,76,0,8.05,PT,1682460298
16,dikson,73.5069,80.5464,-3.6,89,100,5.14,RU,1682460119
17,saint george,37.1041,-113.5841,22.36,17,0,4.02,US,1682460019
18,kudahuvadhoo,2.6708,72.8944,28.11,77,100,3.62,MV,1682460301
19,tongliao,43.6125,122.2653,1.02,56,0,2.0,CN,1682460302
20,butaritari,3.0707,172.7902,27.94,78,100,4.18,KI,1682460115
21,busselton,-33.65,115.3333,15.69,75,100,6.89,AU,1682460105
22,broken hill,-31.95,141.4333,18.14,50,32,5.18,AU,1682460126
23,albany,42.6001,-73.9662,11.92,50,99,1.87,US,1682459888
24,port alfred,-33.5906,26.891,20.1,97,99,3.89,ZA,1682460132
25,umba,66.6871,34.3429,-0.92,87,100,2.57,RU,1682460307
26,provideniya,64.3833,-173.3,-3.94,50,0,9.0,RU,1682460122
27,bluff,-46.6,168.3333,11.56,64,99,9.16,NZ,1682460125
28,itarema,-2.9248,-39.9167,25.87,83,72,3.71,BR,1682460160
29,araouane,18.9048,-3.5265,28.99,9,0,4.43,ML,1682460311
30,muros,42.7762,-9.0603,16.16,94,100,2.75,ES,1682460143
31,general roca,-39.0333,-67.5833,17.57,26,100,2.26,AR,1682460316
32,khatanga,71.9667,102.5,-9.33,91,98,5.36,RU,1682460129
33,hilo,19.7297,-155.09,29.6,77,11,4.47,US,1682460007
34,tasiilaq,65.6145,-37.6368,0.09,92,59,0.85,GL,1682460114
35,saskylakh,71.9167,114.0833,-11.01,96,100,4.24,RU,1682460128
36,rio branco,-9.9747,-67.81,26.34,89,20,0.0,BR,1682460322
37,mar del plata,-38.0023,-57.5575,18.94,94,100,1.54,AR,1682460140
38,christchurch,-43.5333,172.6333,12.45,75,75,2.57,NZ,1682460075
39,tuxpan,19.55,-103.4,29.75,42,98,4.4,MX,1682460325
40,puerto penasco,31.3167,-113.5333,21.62,68,0,6.26,MX,1682460041
41,tuktoyaktuk,69.4541,-133.0374,-18.0,78,75,4.12,CA,1682460114
42,nikolskoye,59.7035,30.7861,11.94,65,9,1.94,RU,1682460119
43,san patricio,28.017,-97.5169,26.05,72,86,7.1,US,1682460116
44,sinnamary,5.3833,-52.95,25.57,90,76,3.69,GF,1682460146
45,kapaa,22.0752,-159.319,27.99,68,65,2.24,US,1682460102
46,lazaro cardenas,17.9583,-102.2,28.7,57,4,6.07,MX,1682460334
47,ribeira grande,38.5167,-28.7,17.65,94,20,5.36,PT,1682460121
48,yuli,9.6989,10.2744,32.43,30,78,1.96,NG,1682460336
49,vila,42.0304,-8.1588,10.49,95,99,0.87,PT,1682460337
50,kaitangata,-46.2817,169.8464,10.52,57,74,5.64,NZ,1682460133
51,ankang,32.68,109.0172,10.29,84,59,0.27,CN,1682460338
52,harstad,68.799,16.5293,1.66,72,98,7.15,NO,1682460339
53,baringo,0.4667,35.9667,18.22,93,100,0.84,KE,1682460339
54,bengkulu,-3.8004,102.2655,24.38,92,99,1.21,ID,1682460122
55,malanje,-9.5402,16.341,18.51,95,99,1.24,AO,1682460166
56,nishihara,26.1842,127.7558,20.6,83,75,7.72,JP,1682460201
57,georgetown,5.4112,100.3354,26.96,94,20,1.03,MY,1682460049
58,luwuk,-0.9516,122.7875,25.62,88,86,0.65,ID,1682460237
59,new norfolk,-42.7826,147.0587,12.06,72,0,1.36,AU,1682460116
60,arraial do cabo,-22.9661,-42.0278,23.92,88,20,4.12,BR,1682460115
61,arlit,18.7369,7.3853,30.71,8,0,4.52,NE,1682460170
62,suhbaatar,50.2314,106.2078,4.54,57,96,8.34,MN,1682460347
63,avarua,-21.2078,-159.775,28.03,69,90,3.09,CK,1682460121
64,majene,-3.5403,118.9707,25.16,89,92,1.62,ID,1682460348
65,turukhansk,65.8167,87.9833,-1.87,98,100,4.28,RU,1682460121
66,rawson,-43.3002,-65.1023,15.13,69,100,4.91,AR,1682459947
67,ust-koksa,50.2696,85.6108,-0.94,85,94,0.98,RU,1682460174
68,surin,14.8818,103.4936,26.35,71,99,4.62,TH,1682460354
69,guarda,40.5373,-7.2658,10.52,83,31,1.54,PT,1682460355
70,constitucion,-35.3333,-72.4167,14.27,72,100,4.58,CL,1682460177
71,torbay,47.6666,-52.7314,1.88,96,100,8.49,CA,1682460156
72,cuamba,-14.8031,36.5372,16.69,96,5,1.11,MZ,1682460357
73,puerto ayora,-0.7393,-90.3518,28.98,88,31,2.68,EC,1682460104
74,baoding,38.8511,115.4903,6.82,22,2,1.18,CN,1682460359
75,pisco,-13.7,-76.2167,25.03,69,0,5.14,PE,1682460162
76,kupang,-10.1667,123.5833,25.32,100,75,1.03,ID,1682460205
77,tukrah,32.5341,20.5791,17.41,51,3,1.73,LY,1682460361
78,fortuna,40.5982,-124.1573,18.29,68,8,1.34,US,1682460127
79,george,-33.963,22.4617,16.75,77,75,3.09,ZA,1682460363
80,yumen,40.2833,97.2,8.38,44,85,3.27,CN,1682460172
81,los llanos de aridane,28.6585,-17.9182,18.86,91,20,4.12,ES,1682460159
82,skjervoy,70.0311,20.9714,-3.0,61,72,5.51,NO,1682460150
83,grand gaube,-20.0064,57.6608,24.22,85,46,3.02,MU,1682460035
84,lodja,-3.4833,23.4333,22.3,92,91,0.46,CD,1682460165
85,miri,4.4148,114.0089,25.08,94,40,1.03,MY,1682460368
86,naze,28.3667,129.4833,16.51,86,100,6.28,JP,1682460153
87,atuona,-9.8,-139.0333,27.43,77,15,7.48,PF,1682460114
88,akureyri,65.6835,-18.0878,-0.04,64,100,3.6,IS,1682460370
89,sao felix do xingu,-6.6447,-51.995,24.28,86,100,1.14,BR,1682460372
90,adrar,20.5022,-10.0711,31.03,11,0,3.68,MR,1682460107
91,bathsheba,13.2167,-59.5167,24.34,94,75,2.57,BB,1682460125
92,sterling,39.0062,-77.4286,15.99,39,75,3.13,US,1682460200
93,college,64.8569,-147.8028,2.11,48,41,0.89,US,1682460182
94,zhezkazgan,47.8043,67.7144,11.7,42,0,3.9,KZ,1682460377
95,marienburg,54.0359,19.0266,7.16,74,100,3.39,PL,1682460378
96,hobart,-42.8794,147.3294,12.25,74,0,2.06,AU,1682460018
97,vila franca do campo,37.7167,-25.4333,17.23,95,71,2.51,PT,1682460133
98,puerto colombia,10.9878,-74.9547,30.05,73,28,7.29,CO,1682460380
99,tabuk,17.4189,121.4443,23.41,90,78,1.16,PH,1682460381
100,wajid,3.8093,43.2471,22.01,90,100,5.84,SO,1682460382
101,esperance,-33.8667,121.9,14.93,69,18,11.62,AU,1682460115
102,hokitika,-42.7167,170.9667,12.96,69,87,5.17,NZ,1682460384
103,severo-kurilsk,50.6789,156.125,1.33,81,28,6.51,RU,1682460126
104,roald,62.5833,6.1333,2.73,93,75,3.6,NO,1682460157
105,aquiraz,-3.9014,-38.3911,29.05,79,97,3.39,BR,1682460107
106,newport,51.5877,-2.9984,8.4,73,100,2.22,GB,1682460388
107,lorengau,-2.0226,147.2712,29.04,74,54,3.49,PG,1682460129
108,westport,41.1415,-73.3579,14.94,50,75,4.63,US,1682459914
109,kawalu,-7.3817,108.2082,22.31,96,78,0.74,ID,1682460391
110,tarsus,36.9188,34.8784,14.93,82,85,1.36,TR,1682460392
111,poltava,49.5937,34.5407,10.82,80,73,3.21,UA,1682460393
112,begunitsy,59.5855,29.3176,9.23,71,35,2.67,RU,1682460394
113,abu zabad,12.35,29.25,30.44,37,67,3.04,SD,1682460395
114,ballina,-28.8667,153.5667,17.1,66,91,5.85,AU,1682460232
115,vao,-22.6667,167.4833,24.09,83,100,8.45,NC,1682460152
116,grindavik,63.8424,-22.4338,3.97,93,75,3.09,IS,1682460154
117,lebu,-37.6167,-73.65,14.04,80,100,2.46,CL,1682460108
118,yellowknife,62.456,-114.3525,6.29,52,75,5.14,CA,1682460055
119,husavik,66.0449,-17.3389,-1.73,67,83,2.0,IS,1682460167
120,hastings,50.8552,0.5729,6.86,41,85,4.95,GB,1682460400
121,hofn,64.2539,-15.2082,-0.08,66,98,0.9,IS,1682460143
122,aksu,41.1231,80.2644,15.16,24,98,0.55,CN,1682460102
123,ust-kuyga,70.0167,135.6,-10.2,98,98,1.31,RU,1682460402
124,port elizabeth,-33.918,25.5701,19.62,95,100,2.06,ZA,1682460125
125,padang,-0.9492,100.3543,25.03,88,100,1.97,ID,1682460180
126,kyrksaeterora,63.2906,9.0891,0.96,98,100,1.07,NO,1682460405
127,camacha,33.0833,-16.3333,16.68,82,20,1.03,PT,1682460140
128,longyearbyen,78.2186,15.6401,-9.37,76,47,1.63,SJ,1682460150
129,yerbogachen,61.2767,108.0108,-9.35,98,91,1.44,RU,1682460409
130,hithadhoo,-0.6,73.0833,28.76,75,100,5.94,MV,1682460120
131,slave lake,55.2834,-114.769,6.99,45,100,6.69,CA,1682460228
132,sept-iles,50.2001,-66.3821,8.29,65,75,4.12,CA,1682459970
133,buraydah,26.326,43.975,20.25,61,20,5.28,SA,1682460180
134,shimoda,34.6667,138.95,13.95,90,100,5.96,JP,1682460413
135,jamestown,42.097,-79.2353,8.07,67,75,4.63,US,1682460116
136,kommunisticheskiy,61.6789,64.4819,0.46,99,100,1.35,RU,1682460417
137,masyaf,35.0653,36.3406,10.88,77,0,1.82,SY,1682460417
138,pangnirtung,66.1451,-65.7125,1.07,93,95,1.61,CA,1682460419
139,bethel,41.3712,-73.414,13.74,48,92,2.2,US,1682460117
140,sarkand,45.41,79.9186,5.87,59,3,2.57,KZ,1682460423
141,sampang,-7.1872,113.2394,26.29,86,65,2.4,ID,1682460424
142,ponta do sol,32.6667,-17.1,20.4,59,54,2.23,PT,1682460137
143,santa isabel,-23.3156,-46.2214,23.61,85,60,0.37,BR,1682460164
144,phan thiet,10.9333,108.1,24.39,89,100,2.85,VN,1682460427
145,katsuura,35.1333,140.3,17.78,86,100,8.38,JP,1682460182
146,providencia,28.7167,-111.5833,30.23,39,0,8.24,MX,1682460428
147,harper,4.375,-7.7169,27.01,85,100,3.56,LR,1682460164
148,beni suef,29.0731,31.0979,21.8,25,5,3.65,EG,1682460430
149,kahului,20.8947,-156.47,22.95,76,39,1.87,US,1682460137
150,skegness,53.1436,0.3363,3.04,64,50,1.38,GB,1682460432
151,skibbereen,51.55,-9.2667,9.5,92,100,4.69,IE,1682460433
152,kununurra,-15.7667,128.7333,21.99,88,80,1.54,AU,1682460138
153,saint-philippe,-21.3585,55.7679,23.77,84,13,1.28,RE,1682460131
154,jinchang,38.4953,102.1739,9.67,22,2,4.53,CN,1682460436
155,catamarca,-28.4696,-65.7852,22.65,62,4,0.89,AR,1682460437
156,leningradskiy,69.3833,178.4167,-9.69,78,42,3.79,RU,1682460135
157,hermanus,-34.4187,19.2345,15.33,80,31,2.77,ZA,1682460093
158,angoram,-4.0625,144.0661,25.22,96,94,1.04,PG,1682460441
159,sitka,57.0531,-135.33,6.3,76,100,2.15,US,1682460118
160,tiksi,71.6872,128.8694,-14.29,100,100,1.13,RU,1682460115
161,demir kapija,41.405,22.2489,10.06,77,65,2.1,MK,1682460443
162,meulaboh,4.1363,96.1285,25.07,89,76,1.63,ID,1682460165
163,nhulunbuy,-12.2333,136.7667,25.34,94,75,6.17,AU,1682460176
164,umm kaddadah,13.6017,26.6876,30.62,17,98,0.64,SD,1682460445
165,teykovo,56.858,40.5369,10.7,93,100,3.62,RU,1682460446
166,ahipara,-35.1667,173.1667,18.12,64,100,5.96,NZ,1682460177
167,abbeville,50.1,1.8333,4.98,81,92,3.42,FR,1682460282
168,abadiania,-16.2042,-48.7069,20.82,70,100,0.8,BR,1682460449
169,chumikan,54.7183,135.315,-0.99,93,100,6.26,RU,1682460186
170,nyimba,-14.5566,30.8149,17.94,69,5,2.27,ZM,1682460450
171,el alto,-4.2714,-81.2147,25.81,74,98,3.32,PE,1682460452
172,korem,12.5058,39.5228,14.35,71,46,0.79,ET,1682460452
173,baghdad,33.3406,44.4009,24.95,29,0,2.57,IQ,1682460010
174,villa maria,-32.4075,-63.2402,19.9,66,1,2.24,AR,1682460278
175,mehamn,71.0357,27.8492,0.97,93,100,5.66,NO,1682460202
176,topolobampo,25.6,-109.05,24.95,57,100,6.17,MX,1682460457
177,alta floresta,-9.8756,-56.0861,24.47,87,92,1.63,BR,1682460092
178,iqaluit,63.7506,-68.5145,-1.15,100,100,1.54,CA,1682460025
179,east london,-33.0153,27.9116,20.63,92,99,4.3,ZA,1682460044
180,tuatapere,-46.1333,167.6833,8.69,80,99,3.37,NZ,1682460179
181,castro,-24.7911,-50.0119,15.61,78,92,1.43,BR,1682460461
182,wokha,26.1,94.2667,11.07,90,5,1.76,IN,1682460462
183,port blair,11.6667,92.75,27.25,77,96,1.1,IN,1682460162
184,parrita,9.5201,-84.3225,30.01,64,14,3.1,CR,1682460464
185,nelson bay,-32.7167,152.15,17.22,96,39,2.24,AU,1682460196
186,coquimbo,-29.9533,-71.3436,14.85,88,75,4.12,CL,1682459957
187,vardo,70.3705,31.1107,-2.01,86,72,4.63,NO,1682460179
188,maningrida,-12.0667,134.2667,24.39,92,42,3.93,AU,1682460467
189,makakilo city,21.3469,-158.0858,28.18,72,100,5.66,US,1682460075
190,hambantota,6.1241,81.1185,25.19,100,40,1.03,LK,1682460118
191,kavieng,-2.5744,150.7967,28.13,79,98,4.18,PG,1682460138
192,narsaq,60.9167,-46.05,6.12,90,98,0.75,GL,1682460171
193,vaini,-21.2,-175.2,27.09,74,40,5.14,TO,1682460106
194,yazykovo,55.2199,56.1353,12.31,63,100,3.49,RU,1682460471
195,carnarvon,-24.8667,113.6333,18.55,67,0,8.34,AU,1682460055
196,sao filipe,14.8961,-24.4956,23.55,72,6,3.39,CV,1682460137
197,chuy,-33.6971,-53.4616,18.99,90,96,2.11,UY,1682460122
198,vostok,46.4856,135.8833,0.7,94,100,1.73,RU,1682460170
199,cabo san lucas,22.8909,-109.9124,30.9,56,13,7.39,MX,1682460139
200,mount gambier,-37.8333,140.7667,15.23,68,57,3.75,AU,1682460174
201,talnakh,69.4865,88.3972,-1.55,86,97,2.29,RU,1682460147
202,sovetsk,55.0839,21.8785,6.38,73,100,4.33,RU,1682460477
203,dandong,40.1292,124.3947,4.92,69,64,6.09,CN,1682460478
204,takoradi,4.8845,-1.7554,27.88,83,68,4.41,GH,1682460155
205,north port,27.0442,-82.2359,29.04,92,10,4.44,US,1682460480
206,bilibino,68.0546,166.4372,-5.82,60,37,0.12,RU,1682460166
207,contai,21.7786,87.7536,25.74,68,74,2.9,IN,1682460481
208,nizhneudinsk,54.9076,99.0276,-2.35,65,100,5.22,RU,1682460482
209,emerald,-23.5333,148.1667,19.08,66,0,7.86,AU,1682460483
210,santa rosa,14.3122,121.1114,27.99,78,5,2.46,PH,1682460412
211,muzhi,65.3667,64.6667,-6.31,87,5,2.39,RU,1682460193
212,bangangte,5.1409,10.5198,17.86,94,100,1.52,CM,1682460486
213,renqiu,38.6989,116.0936,6.9,23,2,1.23,CN,1682460487
214,flinders,-34.5833,150.8552,16.77,90,56,0.89,AU,1682460488
215,okha,53.5739,142.9478,1.43,74,100,7.51,RU,1682460131
216,bonnyville,54.2668,-110.735,10.81,61,100,6.64,CA,1682460491
217,semey,50.4111,80.2275,6.74,57,6,2.3,KZ,1682460492
218,uyemskiy,64.4743,40.8524,1.03,80,40,2.0,RU,1682460493
219,bambous virieux,-20.3428,57.7575,24.14,94,75,2.57,MU,1682460126
220,lashio,22.9333,97.75,18.84,61,14,0.68,MM,1682460495
221,yonezawa,37.9167,140.1167,10.07,93,100,2.02,JP,1682460345
222,kavaratti,10.5669,72.642,27.45,69,46,2.45,IN,1682460149
223,ossora,59.2353,163.0719,-1.5,83,95,2.48,RU,1682460498
224,divnogorsk,55.9594,92.3619,-2.73,91,90,2.24,RU,1682460499
225,vendas novas,38.6771,-8.4579,13.94,73,56,2.73,PT,1682460500
226,faanui,-16.4833,-151.75,27.98,76,21,4.57,PF,1682460141
227,saint-francois,46.4154,3.9054,7.2,83,0,0.51,FR,1682460503
228,kodiak,57.79,-152.4072,3.73,87,75,6.69,US,1682460127
229,waipawa,-41.4122,175.5153,9.81,88,83,5.33,NZ,1682460162
230,sechura,-5.5569,-80.8222,28.51,62,84,4.84,PE,1682460177
231,barrow,71.2906,-156.7887,-11.99,85,0,1.54,US,1682460125
232,geraldton,-28.7667,114.6,17.23,72,75,5.14,AU,1682460072
233,podporozhye,60.9112,34.1706,9.37,71,81,1.43,RU,1682460507
234,devils lake,48.1128,-98.8651,8.06,47,0,4.12,US,1682460508
235,hasaki,35.7333,140.8333,15.22,85,100,10.29,JP,1682460114
236,ponta delgada,37.7333,-25.6667,17.4,100,100,3.6,PT,1682460162
237,hibbing,47.4272,-92.9377,5.87,35,40,2.06,US,1682460510
238,agucadoura,41.4318,-8.7804,17.36,90,100,1.13,PT,1682460513
239,yelizovo,53.1873,158.3805,5.08,55,75,2.0,RU,1682460515
240,huesca,42.1362,-0.4087,19.38,58,0,4.12,ES,1682460516
241,taltal,-25.4,-70.4833,17.08,88,57,3.53,CL,1682460022
242,lompoc,34.6391,-120.4579,24.45,76,100,3.6,US,1682460151
243,maceio,-9.6658,-35.7353,25.69,94,75,1.54,BR,1682460055
244,lianzhou,24.7811,112.3825,9.46,96,5,1.37,CN,1682460533
245,requena,39.4883,-1.1004,15.44,43,29,2.33,ES,1682460533
246,san policarpo,12.1791,125.5072,26.69,80,46,2.58,PH,1682460151
247,yamada,39.4667,141.95,11.13,95,100,8.03,JP,1682460535
248,hazorasp,41.3194,61.0742,14.91,21,18,5.84,UZ,1682460536
249,hamilton,39.1834,-84.5333,16.66,38,100,1.79,US,1682460043
250,lima,-12.0432,-77.0282,25.14,69,0,6.17,PE,1682460195
251,mehran,33.1222,46.1646,22.31,32,0,4.1,IR,1682460540
252,bari,41.1177,16.8512,15.7,79,40,5.14,IT,1682460541
253,maragogi,-9.0122,-35.2225,25.34,86,89,2.59,BR,1682460117
254,halifax,44.6453,-63.5724,8.52,65,75,4.63,CA,1682460366
255,muskogee,35.5834,-95.3336,11.12,93,100,5.14,US,1682460543
256,kirakira,-10.4544,161.9205,28.14,72,92,2.42,SB,1682460164
257,souillac,-20.5167,57.5167,24.21,94,75,2.57,MU,1682460068
258,nanortalik,60.1432,-45.2371,0.98,92,99,2.66,GL,1682460147
259,adre,13.4667,22.2,30.51,25,77,4.14,TD,1682460547
260,rawlins,41.7911,-107.2387,7.97,49,20,4.87,US,1682460549
261,glens falls,43.3095,-73.644,12.9,44,100,3.6,US,1682460575
262,viedma,-40.8135,-62.9967,20.68,48,100,0.97,AR,1682460576
263,kovdor,67.5662,30.4758,-3.15,92,100,1.74,RU,1682460577
264,yarada,17.65,83.2667,26.18,78,40,1.03,IN,1682460578
265,emet,39.343,29.2585,9.55,74,91,2.11,TR,1682460579
266,krasnoselkup,65.7,82.4667,-7.32,92,100,3.9,RU,1682460181
267,north bend,43.4065,-124.2243,22.91,66,0,10.8,US,1682460130
268,gobabis,-22.45,18.9667,23.32,41,92,2.58,NA,1682460581
269,ancud,-41.8697,-73.8203,11.71,97,100,2.78,CL,1682460192
270,akdepe,42.0551,59.3788,19.91,20,52,5.59,TM,1682460583
271,isabela,6.7085,121.9711,24.03,80,87,1.26,PH,1682460583
272,bratsk,56.1325,101.6142,-2.73,82,100,6.93,RU,1682460164
273,puerto del rosario,28.5004,-13.8627,20.86,73,20,3.6,ES,1682460585
274,teacapan,22.55,-105.75,27.61,43,46,4.95,MX,1682460587
275,ulladulla,-35.35,150.4667,16.29,83,9,1.2,AU,1682460142
276,tarut,26.5733,50.0369,22.12,56,100,3.64,SA,1682460589
277,palana,59.1167,159.9667,-2.25,73,75,2.44,RU,1682460155
278,pringsewu,-5.3582,104.9744,23.02,96,97,0.42,ID,1682460168
279,astoria,46.1879,-123.8313,15.33,69,0,5.14,US,1682460591
280,clarence town,-32.5833,151.7833,17.7,75,55,0.37,AU,1682460593
281,luderitz,-26.6481,15.1594,17.6,79,0,5.48,NA,1682460123
282,chico,39.7285,-121.8375,29.56,18,0,5.66,US,1682460595
283,great bend,38.3645,-98.7648,9.46,93,100,4.63,US,1682460596
284,hovd,48.0056,91.6419,-4.13,44,23,5.42,MN,1682460597
285,palmer,42.1584,-72.3287,14.26,49,90,1.34,US,1682460156
286,novyy urengoy,66.0833,76.6333,-11.13,95,76,3.33,RU,1682460598
287,pilar,-9.5972,-35.9567,24.96,92,97,1.32,BR,1682460143
288,dingle,10.9995,122.6711,24.89,87,22,2.41,PH,1682460131
289,nemuro,43.3236,145.575,5.47,81,100,12.56,JP,1682460189
290,canon city,38.441,-105.2424,10.94,84,100,1.54,US,1682460602
291,pandan,14.0453,124.1694,25.96,84,27,3.63,PH,1682460606
292,comodoro rivadavia,-45.8667,-67.5,12.92,82,75,3.09,AR,1682460185
293,placido de castro,-10.3353,-67.1856,25.08,95,73,0.35,BR,1682460607
294,altay,47.8667,88.1167,1.04,69,27,2.24,CN,1682460607
295,llanes,43.4198,-4.7549,16.24,87,100,1.35,ES,1682460608
296,guerrero negro,27.9769,-114.0611,19.74,55,0,7.28,MX,1682460171
297,buguruslan,53.6554,52.442,13.45,60,100,3.37,RU,1682460609
298,miraflores,19.2167,-98.8083,27.79,20,84,2.79,MX,1682460611
299,kijang,35.2442,129.2139,7.85,83,7,2.71,KR,1682460131
300,sola,-13.8833,167.55,27.37,89,40,0.0,VU,1682460187
301,anadyr,64.75,177.4833,-8.72,61,0,2.68,RU,1682460098
302,thompson,55.7435,-97.8558,9.09,29,20,2.57,CA,1682460119
303,mount pleasant,32.7941,-79.8626,22.22,68,75,7.72,US,1682460143
304,soure,-0.7167,-48.5233,26.3,83,42,3.89,BR,1682460604
305,macklin,52.3334,-109.9348,14.96,42,100,2.66,CA,1682460622
306,port lincoln,-34.7333,135.8667,20.72,54,100,6.45,AU,1682460121
307,chokurdakh,70.6333,147.9167,-9.4,96,44,1.34,RU,1682460119
308,hay river,60.8156,-115.7999,0.98,93,100,3.6,CA,1682460625
309,mostovskoy,44.4122,40.7936,7.16,91,29,1.83,RU,1682460627
310,airai,-8.9266,125.4092,15.51,96,69,1.7,TL,1682460126
311,nara,34.6851,135.8049,15.83,92,100,2.58,JP,1682460183
312,lata,40.1629,-8.3327,16.56,91,11,0.91,PT,1682460631
313,san pedro,14.35,121.0167,27.57,78,40,1.03,PH,1682460032
314,pitimbu,-7.4706,-34.8086,27.33,84,99,4.66,BR,1682460127
315,saint-pierre,-21.3393,55.4781,24.2,83,100,2.06,RE,1682460046
316,nizhniy kuranakh,58.8353,125.4869,-3.91,78,82,1.21,RU,1682460635
317,sarangani,5.4033,125.4636,28.64,73,36,6.37,PH,1682460139
318,san cristobal,7.7669,-72.225,25.1,84,61,1.1,VE,1682460170
319,shelburne,44.0787,-80.2041,8.2,43,95,5.24,CA,1682460637
320,varena,54.2167,24.5667,8.32,92,92,3.96,LT,1682460638
321,capreol,46.706,-80.9225,4.75,67,100,2.06,CA,1682460638
322,olafsvik,64.8945,-23.7142,0.98,60,22,6.7,IS,1682460149
323,paamiut,61.994,-49.6678,0.71,98,100,2.38,GL,1682460229
324,ilhabela,-23.7781,-45.3581,21.33,83,71,1.29,BR,1682459966
325,baykit,61.67,96.37,0.4,96,100,1.19,RU,1682460212
326,sioux lookout,50.1001,-91.917,4.08,66,100,1.44,CA,1682460642
327,weligama,5.9667,80.4167,25.39,88,100,1.31,LK,1682460126
328,agadir,30.4202,-9.5982,19.25,75,13,1.29,MA,1682460644
329,corozal,9.3151,-75.2928,29.58,61,51,6.55,CO,1682460644
330,kitimat,54.0524,-128.6534,9.95,67,100,1.34,CA,1682460539
331,poum,-20.2333,164.0167,25.9,77,100,4.73,NC,1682460166
332,kodinsk,58.6881,99.1844,-2.55,95,100,4.55,RU,1682460192
333,tigil,57.8,158.6667,0.27,75,69,0.83,RU,1682460119
334,victoria,22.2855,114.1577,20.69,78,52,5.36,HK,1682459994
335,pangody,65.85,74.4859,-6.32,98,98,2.01,RU,1682460649
336,birjand,32.8663,59.2211,16.26,23,0,3.09,IR,1682460012
337,faya,18.3851,42.4509,14.06,60,1,1.95,SA,1682460185
338,porkhov,57.765,29.5561,9.09,77,19,2.2,RU,1682460653
339,lomovka,53.9194,58.3672,11.1,55,100,1.31,RU,1682460654
340,svetlyy yar,48.4748,44.781,11.78,75,0,6.56,RU,1682460655
341,alofi,-19.0595,-169.9187,26.94,78,68,4.12,NU,1682460123
342,xichang,27.8964,102.2634,13.45,84,98,1.63,CN,1682460656
343,danilovka,50.3557,44.1168,9.87,90,40,5.57,RU,1682460656
344,mizan teferi,6.9833,35.5833,16.54,98,100,1.54,ET,1682460657
345,choya,52.0108,86.5467,0.29,88,100,1.12,RU,1682460658
346,waw,7.7029,27.9953,25.47,70,100,5.45,SS,1682460659
347,wichian buri,15.6578,101.106,28.51,64,94,1.96,TH,1682460660
348,kota kinabalu,5.9749,116.0724,24.99,94,20,2.24,MY,1682460660
349,cairns,-16.9167,145.7667,25.59,87,40,4.12,AU,1682460032
350,pevek,69.7008,170.3133,-11.57,83,11,1.24,RU,1682460137
351,beringovskiy,63.05,179.3167,-9.55,84,100,8.24,RU,1682460151
352,asyut,27.181,31.1837,24.1,26,0,3.43,EG,1682460176
353,lavrentiya,65.5833,-171.0,-7.68,71,36,6.86,RU,1682460119
354,waingapu,-9.6567,120.2641,25.42,86,99,3.49,ID,1682460664
355,remanso,-9.6179,-42.0831,26.66,50,53,1.27,BR,1682460666
356,iisalmi,63.5592,27.1907,4.06,99,100,2.64,FI,1682460667
357,cherskiy,68.75,161.3,-5.17,73,58,1.54,RU,1682460112
358,santa cruz,-17.8,-63.1667,24.7,78,75,1.54,BO,1682460600
359,vestmanna,62.1564,-7.1664,-0.49,80,75,1.54,FO,1682460670
360,kasulu,-4.5767,30.1025,17.58,95,76,0.27,TZ,1682460672
361,lufkin,31.3382,-94.7291,22.56,65,0,4.63,US,1682460442
362,te anau,-45.4167,167.7167,7.25,82,42,0.38,NZ,1682460178
363,kidal,18.4411,1.4078,30.13,9,0,3.03,ML,1682460677
364,bilma,18.6853,12.9164,30.97,10,0,5.43,NE,1682460166
365,norman wells,65.282,-126.8329,-7.98,57,20,5.66,CA,1682460174
366,puerto escondido,15.85,-97.0667,29.87,58,46,4.56,MX,1682460093
367,tiarei,-17.5333,-149.3333,28.89,83,100,5.1,PF,1682460680
368,yulara,-25.2406,130.9889,19.61,41,100,2.16,AU,1682460183
369,ewa beach,21.3156,-158.0072,28.97,66,20,5.14,US,1682460681
370,myitkyina,25.3833,97.4,20.62,69,48,1.37,MM,1682460681
371,varadero,23.1536,-81.2514,28.42,76,69,2.87,CU,1682460642
372,lakes entrance,-37.8811,147.981,14.87,69,57,2.33,AU,1682460222
373,necochea,-38.5473,-58.7368,15.81,86,3,4.23,AR,1682460174
374,sao joao da barra,-21.6403,-41.0511,24.05,86,4,3.43,BR,1682460115
375,beyneu,45.3167,55.2,20.96,18,100,10.89,KZ,1682460151
376,cayenne,4.9333,-52.3333,25.02,94,20,2.06,GF,1682459983
377,coihaique,-45.5752,-72.0662,12.34,96,100,1.49,CL,1682460131
378,samarai,-10.6167,150.6667,27.48,80,97,3.19,PG,1682460141
379,bubaque,11.2833,-15.8333,25.77,69,2,9.06,GW,1682460140
380,destin,30.3935,-86.4958,27.25,70,0,2.06,US,1682460689
381,gat,31.61,34.7642,16.89,75,0,0.95,IL,1682460217
382,katsina,12.9894,7.6006,32.26,21,63,1.57,NG,1682460691
383,haines junction,60.7522,-137.5108,3.97,45,96,5.14,CA,1682460123
384,namibe,-15.1961,12.1522,23.5,81,56,3.22,AO,1682460157
385,mahebourg,-20.4081,57.7,24.16,94,75,2.57,MU,1682460071
386,jackson,42.4165,-122.8345,24.3,31,0,1.79,US,1682459940
387,port hedland,-20.3167,118.5667,25.03,94,75,0.0,AU,1682460177
388,ayan,56.45,138.1667,-0.8,97,100,5.68,RU,1682460163
389,trutnov,50.561,15.9127,4.21,91,19,1.69,CZ,1682460696
390,port macquarie,-31.4333,152.9167,16.05,61,94,2.07,AU,1682460453
391,kieta,-6.2167,155.6333,28.04,77,71,0.85,PG,1682460232
392,bakaly,55.1789,53.8028,14.75,51,100,4.77,RU,1682460699
393,akyab,20.15,92.9,26.51,64,30,4.37,MM,1682460211
394,savinka,50.0785,47.0994,9.96,95,63,4.37,RU,1682460700
395,nushki,29.5542,66.0215,22.82,26,100,3.57,PK,1682460701
396,quatre cocos,-20.2078,57.7625,24.06,85,34,2.55,MU,1682460220
397,chimore,-16.9833,-65.1333,25.0,81,100,0.57,BO,1682460702
398,port hardy,50.6996,-127.4199,10.1,71,100,3.09,CA,1682460160
399,ukiah,39.1502,-123.2078,29.92,23,0,1.54,US,1682460703
400,bela,25.9333,81.9833,25.9,28,47,1.57,IN,1682460707
401,meadow lake,34.8014,-106.5436,21.58,16,99,11.25,US,1682459896
402,shakiso,5.75,38.9167,13.13,96,91,0.96,ET,1682460709
403,sinazongwe,-17.2614,27.4618,23.74,44,0,0.32,ZM,1682460709
404,ramapuram,13.1167,79.2,25.75,87,93,2.32,IN,1682460710
405,nagod,24.5667,80.6,26.18,32,65,1.61,IN,1682460711
406,san carlos de bariloche,-41.1456,-71.3082,10.86,71,100,4.12,AR,1682459962
407,san lorenzo,-25.3333,-57.5333,19.52,94,75,0.0,PY,1682460686
408,fort nelson,58.8053,-122.7002,7.77,42,40,5.14,CA,1682460227
409,verkhoyansk,67.5447,133.385,-8.4,95,94,1.5,RU,1682460715
410,kysyl-syr,63.8986,122.7617,-3.23,96,100,3.2,RU,1682460224
411,yar-sale,66.8333,70.8333,-15.87,96,90,2.75,RU,1682460717
412,mayo,38.8876,-76.5119,16.18,49,20,2.57,US,1682460219
413,havelock,34.8791,-76.9013,18.98,53,40,4.63,US,1682460718
414,lomianki,52.3341,20.886,9.49,93,75,4.12,PL,1682460719
415,wajima,37.4,136.9,12.19,95,100,2.91,JP,1682460235
416,aklavik,68.2191,-135.0107,-12.28,74,66,3.25,CA,1682460154
417,manggar,-2.8833,108.2667,26.35,82,99,0.99,ID,1682460721
418,rocha,-34.4833,-54.3333,18.06,89,99,2.16,UY,1682459966
419,luvianos,18.9167,-100.4,31.86,13,31,2.99,MX,1682460723
420,eyl,7.9803,49.8164,27.73,80,36,4.25,SO,1682460180
421,northam,51.0333,-4.2167,7.01,73,100,4.68,GB,1682460160
422,yershov,51.3513,48.2766,11.95,95,100,5.81,RU,1682460724
423,goderich,43.7501,-81.7165,6.18,61,21,2.57,CA,1682460158
424,wanaka,-44.7,169.15,10.06,74,96,0.89,NZ,1682460622
425,adolfo lopez mateos,28.4667,-107.3,23.24,8,29,9.53,MX,1682460727
426,codajas,-3.8367,-62.0569,24.8,87,82,0.58,BR,1682460728
427,nybro,56.7446,15.9071,6.45,86,100,2.91,SE,1682460729
428,usinsk,65.9939,57.5281,-6.95,94,10,3.34,RU,1682460730
429,yerbabuena,20.9667,-101.2667,28.85,6,66,8.27,MX,1682460731
430,touros,-5.1989,-35.4608,25.47,87,98,4.33,BR,1682460185
431,huilong,31.8111,121.655,11.76,85,36,3.94,CN,1682460187
432,cockburn town,21.4612,-71.1419,25.92,71,40,4.17,TC,1682460733
433,kotelnikovo,47.6317,43.1461,10.98,80,67,7.13,RU,1682460735
434,havoysund,70.9963,24.6622,2.13,72,90,2.14,NO,1682460159
435,novikovo,51.1537,37.8879,10.02,90,100,2.77,RU,1682460736
436,lovozero,68.005,35.0117,-4.57,88,86,0.79,RU,1682460736
437,mountain home,43.133,-115.6912,16.19,41,0,6.17,US,1682460221
438,kamsack,51.5667,-101.9009,7.91,48,100,5.92,CA,1682460738
439,kruisfontein,-34.0033,24.7314,16.6,92,89,1.0,ZA,1682460739
440,toora-khem,52.4675,96.11,-6.31,79,47,2.22,RU,1682460740
441,acarau,-2.8856,-40.12,26.18,84,70,4.12,BR,1682460013
442,alekseyevka,50.6309,38.6903,9.84,94,100,4.07,RU,1682460744
443,shenjiamen,29.9576,122.298,13.51,83,7,5.6,CN,1682460747
444,luxor,25.6989,32.6421,23.8,15,1,3.95,EG,1682460748
445,komsomolskiy,40.4272,71.7189,18.4,52,17,2.06,UZ,1682460749
446,morgan city,29.6994,-91.2068,25.0,70,62,1.01,US,1682460750
447,prince rupert,54.3161,-130.3201,9.05,72,100,7.72,CA,1682460120
448,jaumave,23.4167,-99.3833,31.16,34,77,2.97,MX,1682460752
449,cabedelo,-6.9811,-34.8339,27.37,87,100,4.5,BR,1682460753
450,aylesbury,51.8167,-0.8146,7.53,80,95,2.46,GB,1682460529
451,aykhal,66.0,111.5,-9.7,96,100,3.26,RU,1682460175
452,saint-georges,12.0564,-61.7485,26.82,83,40,7.72,GD,1682460185
453,awbari,26.5921,12.7805,23.94,24,0,3.5,LY,1682460757
454,joinville,-26.3044,-48.8456,19.23,97,65,0.72,BR,1682460660
455,umtata,-31.5889,28.7844,17.04,94,100,1.01,ZA,1682460191
456,hashtrud,37.4779,47.0508,8.74,59,5,1.91,IR,1682460760
457,tual,-5.6667,132.75,28.1,74,56,1.29,ID,1682460173
458,kalmunai,7.4167,81.8167,26.91,83,100,0.65,LK,1682460167
459,san pedro buenavista,16.0833,-93.1167,33.88,32,19,4.38,MX,1682460762
460,havre-saint-pierre,50.2334,-63.5986,4.24,73,40,3.53,CA,1682460764
461,upernavik,72.7868,-56.1549,-1.9,91,100,2.71,GL,1682460765
462,saint pete beach,27.7253,-82.7412,29.52,69,0,3.09,US,1682460766
463,xuddur,4.1213,43.8894,23.9,80,100,4.26,SO,1682460768
464,neiafu,-18.65,-173.9833,27.38,69,40,4.12,TO,1682460769
465,brigantine,39.4101,-74.3646,16.12,34,0,6.17,US,1682460223
466,noormarkku,61.5927,21.8685,5.88,100,100,2.06,FI,1682460771
467,aksarka,66.5606,67.7975,-9.77,89,5,3.11,RU,1682460190
468,banda aceh,5.5577,95.3222,26.48,80,98,2.01,ID,1682460177
469,payo,-3.7508,103.6372,22.22,94,99,0.67,ID,1682460773
470,maua,-23.6678,-46.4614,20.76,88,88,1.54,BR,1682460487
471,goure,13.9835,10.2704,30.5,19,4,1.59,NE,1682460774
472,ostrovnoy,68.0531,39.5131,-9.16,90,22,3.4,RU,1682460775
473,marsa matruh,31.3525,27.2453,18.33,73,0,2.75,EG,1682460776
474,come,6.4076,1.882,28.23,81,63,4.16,BJ,1682460777
475,mutis,6.2262,-77.4044,28.19,78,39,1.9,CO,1682460777
476,gornopravdinsk,60.05,69.9,4.73,93,71,3.07,RU,1682460779
477,evanston,42.0411,-87.6901,8.69,65,75,6.17,US,1682460736
478,indramayu,-6.3264,108.32,26.06,84,96,2.0,ID,1682460781
479,chandur bazar,21.2417,77.7456,26.11,56,48,2.62,IN,1682460781
480,bira,49.0,132.4667,1.79,55,4,2.09,RU,1682460783
481,lysva,58.1086,57.8053,10.16,69,85,2.07,RU,1682460783
482,bireun,5.203,96.7009,25.43,85,70,2.01,ID,1682460785
483,wanning,18.8003,110.3967,22.76,94,91,3.76,CN,1682460785
484,auki,-8.7676,160.7034,27.66,77,95,1.41,SB,1682460788
485,vadso,70.0744,29.7487,-1.51,80,0,3.6,NO,1682460789
486,hirara,24.8,125.2833,22.13,85,100,10.13,JP,1682460789
487,male,4.1748,73.5089,28.57,75,91,3.83,MV,1682460648
488,kargopol,61.5071,38.9456,7.35,87,34,1.38,RU,1682460791
489,redlands,34.0556,-117.1825,31.24,51,1,3.04,US,1682460624
490,dwarka,22.2394,68.9678,26.49,73,58,4.82,IN,1682460792
491,yurino,56.2942,46.3039,12.17,88,100,7.74,RU,1682460793
492,mackay,-21.15,149.2,20.93,79,74,8.78,AU,1682460206
493,viransehir,37.2353,39.7631,13.93,42,5,1.96,TR,1682460213
494,villavicencio,4.142,-73.6266,25.72,87,75,0.38,CO,1682460129
495,manavalakurichi,8.1333,77.3,26.99,82,98,1.0,IN,1682460796
496,udachnyy,66.4167,112.4,-8.23,95,100,3.07,RU,1682460798
497,la cruz,23.9167,-106.9,27.25,48,0,4.17,MX,1682460798
498,tera,14.0078,0.7531,32.65,13,15,2.71,NE,1682460799
499,mahibadhoo,3.7833,72.9667,28.46,75,99,3.74,MV,1682460800
500,praya,14.9215,-23.5087,22.3,73,20,7.2,CV,1682460801
501,san jeronimo,-11.9472,-75.2829,14.35,69,85,2.18,PE,1682460801
502,boca do acre,-8.7522,-67.3978,25.39,83,74,0.47,BR,1682460802
503,murray bridge,-35.1167,139.2667,22.85,54,100,4.81,AU,1682460219
504,yantzaza,-3.8278,-78.7594,22.23,86,95,0.47,EC,1682460804
505,ambilobe,-13.2,49.05,23.65,96,43,1.39,MG,1682460232
506,erenhot,43.6475,111.9767,4.35,21,88,4.13,CN,1682460806
507,neepawa,50.2289,-99.4664,9.04,42,60,4.7,CA,1682460807
508,timra,62.487,17.3257,0.82,86,100,2.57,SE,1682460807
509,broome,42.2506,-75.833,12.48,39,75,4.63,US,1682460808
510,jumla,29.2747,82.1838,5.76,79,79,2.05,NP,1682460809
511,kety,49.8821,19.2233,8.24,91,75,2.98,PL,1682460810
512,leh,34.1667,77.5833,-6.25,47,0,1.16,IN,1682460811
513,taree,-31.9,152.4667,15.68,99,87,1.2,AU,1682460812
514,santa maria,-29.6842,-53.8069,18.66,95,100,2.45,BR,1682460598
515,mudanya,40.3753,28.8822,14.19,74,84,2.73,TR,1682460813
516,cap malheureux,-19.9842,57.6142,24.15,86,63,3.31,MU,1682460816
517,olean,42.0776,-78.4297,10.38,39,100,0.0,US,1682460817
518,bandarbeyla,9.4942,50.8122,28.04,77,36,5.05,SO,1682460818
519,mitsamiouli,-11.3847,43.2844,27.53,69,19,4.0,KM,1682460818
520,ust-omchug,61.15,149.6333,-4.06,92,95,1.86,RU,1682460745
521,isangel,-19.55,169.2667,27.06,89,40,1.03,VU,1682460820
522,plettenberg bay,-34.0527,23.3716,16.32,87,58,0.92,ZA,1682460821
523,dicabisagan,17.0818,122.4157,25.06,86,91,1.9,PH,1682460821
524,pacific grove,36.6177,-121.9166,24.8,74,0,3.13,US,1682460822
525,vuktyl,63.8567,57.3094,-4.11,93,78,0.7,RU,1682460823
526,campbell river,50.0163,-125.2446,11.36,61,98,2.38,CA,1682460824
527,oxford,51.7522,-1.256,7.64,68,0,3.6,GB,1682460767
528,aviles,43.5547,-5.9248,17.66,94,75,0.0,ES,1682460677
529,walvis bay,-22.9575,14.5053,16.72,70,0,3.6,NA,1682460826
530,cuenca,-2.8833,-78.9833,17.07,67,75,3.09,EC,1682460242
531,svetlyy,54.675,20.1347,6.03,78,100,3.92,RU,1682460827
532,agadez,19.75,10.25,29.76,12,0,3.09,NE,1682460828
533,visby,57.6409,18.296,7.12,93,100,3.6,SE,1682460828
534,san matias,-16.3667,-58.4,25.57,80,26,1.21,BO,1682460830
535,vanimo,-2.6741,141.3028,26.43,87,68,1.85,PG,1682460831
536,kiama,-34.6833,150.8667,19.44,90,66,0.64,AU,1682460817
537,falesti,47.5736,27.7092,11.12,87,100,3.92,MD,1682460832
538,tiznit,29.5833,-9.5,24.15,43,62,0.15,MA,1682460834
539,yarmouth,41.7057,-70.2286,13.41,84,0,3.13,US,1682460835
540,port hueneme,34.1478,-119.1951,25.21,73,100,5.66,US,1682460836
541,ajdabiya,30.7554,20.2263,18.81,45,0,3.43,LY,1682460837
542,cochrane,51.1834,-114.4687,16.06,28,100,5.8,CA,1682460629
543,sayyan,15.1718,44.3244,17.03,50,67,0.69,YE,1682460838
544,bonavista,48.6499,-53.1147,0.33,96,100,8.0,CA,1682460839
545,nipawin,53.3668,-104.0009,5.74,82,100,7.6,CA,1682460840
546,aguimes,27.9054,-15.4461,19.35,68,20,4.63,ES,1682460841
547,yerofey pavlovich,53.9667,121.9667,-3.34,58,38,1.67,RU,1682460841
548,maumere,-8.6199,122.2111,26.59,85,96,3.35,ID,1682460842
549,caravelas,-17.7125,-39.2481,24.22,84,12,1.9,BR,1682460843
550,pocatello,42.8713,-112.4455,14.95,49,75,5.66,US,1682460844
551,waitati,-45.75,170.5667,9.89,63,80,5.06,NZ,1682460845
552,dzaoudzi,-12.7887,45.2699,27.94,74,75,5.66,YT,1682460845
553,berlevag,70.8578,29.0864,1.0,85,88,3.78,NO,1682460846
554,clyde river,70.4692,-68.5914,-4.98,91,65,2.93,CA,1682460847
555,pasir gudang,1.4584,103.8805,26.87,93,75,1.03,MY,1682460848
556,boljevac,43.8303,21.9531,8.81,89,77,1.41,RS,1682460849
557,morondava,-20.2833,44.2833,23.23,78,0,4.09,MG,1682460849
558,inirida,3.8653,-67.9239,24.53,94,98,0.86,CO,1682460850
559,odweyne,9.4092,45.064,22.72,71,12,3.22,SO,1682460851
560,tilichiki,60.4667,166.1,-8.5,87,100,3.16,RU,1682460852
561,amazar,53.858,120.875,-4.12,70,49,1.34,RU,1682460853
562,azare,11.6765,10.1948,31.82,19,34,2.32,NG,1682460855
563,stephenville,32.2207,-98.2023,20.14,76,100,4.63,US,1682460857
564,macapa,0.0389,-51.0664,26.99,94,75,1.03,BR,1682460858
565,samdari,25.8167,72.5833,29.5,20,100,3.16,IN,1682460859
566,shepsi,44.0361,39.1489,11.04,70,7,2.63,RU,1682460860
567,jiwani,25.05,61.7417,25.09,57,100,2.0,PK,1682460861
568,atbasar,51.8,68.3333,11.72,53,0,3.71,KZ,1682460862
569,sirajganj,24.45,89.7167,27.81,50,22,1.73,BD,1682460862
570,kedougou,12.5579,-12.1743,33.89,18,0,1.14,SN,1682460863
571,marsh harbour,26.5412,-77.0636,24.54,71,56,5.05,BS,1682460864
572,shaunavon,49.6501,-108.4181,15.26,44,75,5.59,CA,1682460825
573,klaksvik,62.2266,-6.589,0.51,60,100,9.22,FO,1682460866
574,barranca,-10.75,-77.7667,25.0,72,94,4.43,PE,1682460867
575,urumqi,43.801,87.6005,9.53,58,0,2.0,CN,1682460867
576,middelburg,-25.7751,29.4648,17.76,44,38,1.34,ZA,1682460868
577,digha,21.6833,87.55,25.78,68,66,3.6,IN,1682460869
578,kokopo,-4.352,152.2633,27.51,73,99,0.63,PG,1682460870
579,road town,18.4167,-64.6167,28.05,65,20,2.06,VG,1682460871
580,parabel,58.6978,81.4825,-2.39,88,62,1.3,RU,1682460871
